UTCTime       Week    GPSTime       Latitude      Longitude        H-Ell       X-ECEF       Y-ECEF       Z-ECEF   VX-ECEF   VY-ECEF   VZ-ECEF     VEast    VNorth       VUp VelBdyX VelBdyY VelBdyZ AccBdyX AccBdyY AccBdyZ           Roll          Pitch        Heading Q     SDX-ECEF     SDY-ECEF     SDZ-ECEF       SDEast      SDNorth     SDHeight         HdngSD     SD-VN     SD-VE     SD-VH         RollSD        PitchSD        AzStDev
         (sec)    (weeks)      (sec)          (deg)          (deg)          (m)          (m)          (m)          (m)     (m/s)     (m/s)     (m/s)     (m/s)     (m/s)     (m/s)   (m/s)   (m/s)   (m/s) (m/s^2) (m/s^2) (m/s^2)          (deg)          (deg)          (deg)            (m)          (m)          (m)          (m)          (m)          (m)          (deg)     (m/s)     (m/s)     (m/s)          (deg)          (deg)          (deg)
1739447638.000 2353.00000 388456.000  22.2930575551 114.1742056876        3.198 -2417865.429  5386478.885  2404470.862    -0.006    -0.002    -0.008     0.006    -0.008    -0.003   0.006  -0.008  -0.004  -0.024   0.026  -0.005  -4.7922189985   0.1470954547   0.0060447047 1        0.004        0.005        0.004        0.003        0.004        0.006   0.0206820872     0.002     0.001     0.001   0.0034631041   0.0036895629   0.0000000000
1739447638.100 2353.00000 388456.100  22.2930575551 114.1742056876        3.198 -2417865.429  5386478.885  2404470.862    -0.001    -0.004    -0.009     0.002    -0.007    -0.006   0.002  -0.007  -0.007  -0.037  -0.150   0.041  -4.7870451863   0.2523307347  -0.0057811634 1        0.004        0.005        0.004        0.003        0.004        0.006   0.0206858683     0.002     0.001     0.001   0.0034588117   0.0036855934   0.0000000000
1739447638.200 2353.00000 388456.200  22.2930575551 114.1742056876        3.198 -2417865.429  5386478.885  2404470.862    -0.006    -0.002    -0.022     0.006    -0.020    -0.008   0.005  -0.020  -0.008   0.027  -0.017  -0.090  -4.7370316703   0.2678663436  -0.0933493037 1        0.004        0.005        0.004        0.003        0.004        0.006   0.0206857491     0.002     0.001     0.001   0.0034467801   0.0036742962   0.0000000000
1739447638.300 2353.00000 388456.300  22.2930575551 114.1742056876        3.197 -2417865.429  5386478.885  2404470.862    -0.011    -0.002    -0.022     0.011    -0.021    -0.005   0.010  -0.021  -0.006   0.049  -0.082   0.060  -4.7181986216   0.2507206409  -0.2057289435 1        0.004        0.005        0.004        0.003        0.004        0.006   0.0206831954     0.002     0.001     0.001   0.0034299891   0.0036584898   0.0000000000
1739447638.400 2353.00000 388456.400  22.2930575550 114.1742056876        3.197 -2417865.429  5386478.885  2404470.862    -0.010    -0.004    -0.020     0.011    -0.018    -0.007   0.010  -0.018  -0.007  -0.025   0.109  -0.032  -4.6911806922   0.2143377844  -0.3314962785 1        0.004        0.005        0.004        0.003        0.004        0.006   0.0206830259     0.002     0.001     0.001   0.0034192221   0.0036484322   0.0000000000
1739447638.500 2353.00000 388456.500  22.2930575551 114.1742056876        3.197 -2417865.429  5386478.885  2404470.861    -0.008    -0.001    -0.017     0.008    -0.017    -0.004   0.008  -0.017  -0.005  -0.034   0.021  -0.017  -4.6540301727   0.2299881238  -0.4030099187 1        0.004        0.005        0.004        0.003        0.004        0.006   0.0206859205     0.002     0.001     0.001   0.0034160446   0.0036455942   0.0000000000
1739447638.600 2353.00000 388456.600  22.2930575552 114.1742056876        3.197 -2417865.429  5386478.885  2404470.862    -0.002    -0.005    -0.012     0.004    -0.009    -0.008   0.003  -0.009  -0.008  -0.107   0.116  -0.042  -4.6706202067   0.2297073785  -0.4121113055 1        0.004        0.005        0.004        0.003        0.004        0.006   0.0206920393     0.002     0.001     0.001   0.0034205953   0.0036501035   0.0000000000
1739447638.700 2353.00000 388456.700  22.2930575553 114.1742056876        3.197 -2417865.429  5386478.885  2404470.862    -0.003    -0.006    -0.003     0.006    -0.001    -0.005   0.005  -0.001  -0.006   0.010   0.163   0.048  -4.6851703764   0.2684480035  -0.3976957535 1        0.004        0.005        0.004        0.003        0.004        0.006   0.0207014717     0.002     0.001     0.001   0.0034327463   0.0036618505   0.0000000000
1739447638.800 2353.00000 388456.800  22.2930575555 114.1742056876        3.198 -2417865.429  5386478.885  2404470.862    -0.001    -0.010     0.004     0.005     0.008    -0.007   0.005   0.007  -0.007   0.053   0.017   0.019  -4.6367956740   0.3343208031  -0.3547382493 1        0.004        0.005        0.004        0.003        0.004        0.006   0.0207137018     0.002     0.001     0.001   0.0034509290   0.0036793696   0.0000000000
1739447638.900 2353.00000 388456.900  22.2930575551 114.1742056876        3.198 -2417865.429  5386478.885  2404470.862    -0.011    -0.007     0.008     0.013     0.008     0.002   0.013   0.008   0.001   0.017  -0.018  -0.007  -4.5750564672   0.3862566606  -0.3590210929 1        0.004        0.005        0.004        0.003        0.004        0.006   0.0207239427     0.002     0.001     0.001   0.0034643272   0.0036924095   0.0000000000
1739447639.000 2353.00000 388457.000  22.2930575539 114.1742056876        3.198 -2417865.429  5386478.885  2404470.861    -0.009    -0.006     0.006     0.011     0.007     0.001   0.011   0.006   0.000  -0.029   0.016   0.002  -4.5662788215   0.3557437654  -0.3460554605 1        0.004        0.005        0.004        0.003        0.004        0.006   0.0207311586     0.002     0.001     0.001   0.0034700392   0.0036982568   0.0000000000
1739447639.100 2353.00000 388457.100  22.2930575528 114.1742056902        3.198 -2417865.429  5386478.885  2404470.861    -0.010     0.001     0.006     0.009     0.004     0.007   0.009   0.004   0.006  -0.030  -0.041   0.031  -4.5933854699   0.2971902245  -0.2369092912 1        0.004        0.005        0.004        0.003        0.004        0.006   0.0207345635     0.002     0.001     0.001   0.0034669950   0.0036958831   0.0000000000
1739447639.200 2353.00000 388457.200  22.2930575525 114.1742056970        3.197 -2417865.430  5386478.884  2404470.861    -0.009    -0.003    -0.000     0.009    -0.001     0.001   0.009  -0.001   0.000   0.031   0.024  -0.104  -4.6221651298   0.1610382291  -0.0511219458 1        0.004        0.005        0.004        0.003        0.004        0.006   0.0207341556     0.002     0.001     0.001   0.0034561448   0.0036861419   0.0000000000
1739447639.300 2353.00000 388457.300  22.2930575524 114.1742057054        3.197 -2417865.431  5386478.884  2404470.861    -0.012    -0.002    -0.000     0.012    -0.002     0.003   0.012  -0.001   0.002   0.046  -0.053   0.087  -4.6126655024   0.0670848460   0.1372432798 1        0.004        0.005        0.004        0.003        0.004        0.006   0.0207313560     0.002     0.001     0.001   0.0034405517   0.0036719409   0.0000000000
1739447639.400 2353.00000 388457.400  22.2930575522 114.1742057121        3.197 -2417865.431  5386478.884  2404470.861    -0.013    -0.012     0.000     0.017     0.002    -0.005   0.016   0.002  -0.006  -0.002   0.116  -0.181  -4.5642791456   0.0450488167   0.2228720996 1        0.004        0.005        0.004        0.003        0.004        0.006   0.0207309239     0.002     0.001     0.001   0.0034310396   0.0036635380   0.0000000000
1739447639.500 2353.00000 388457.500  22.2930575516 114.1742057145        3.197 -2417865.432  5386478.884  2404470.861    -0.016    -0.016     0.003     0.021     0.006    -0.006   0.021   0.006  -0.008   0.003   0.038  -0.017  -4.5535734824   0.1006744142   0.2384335217 1        0.004        0.005        0.004        0.003        0.004        0.006   0.0207335278     0.002     0.001     0.001   0.0034291854   0.0036624139   0.0000000000
1739447639.600 2353.00000 388457.600  22.2930575538 114.1742057160        3.197 -2417865.432  5386478.883  2404470.861    -0.011    -0.011     0.010     0.014     0.011    -0.001   0.014   0.011  -0.002  -0.056  -0.021   0.200  -4.6129864570   0.1780725035   0.2091869839 1        0.004        0.006        0.004        0.003        0.004        0.006   0.0207393151     0.002     0.001     0.001   0.0034351386   0.0036687143   0.0000000000
1739447639.700 2353.00000 388457.700  22.2930575543 114.1742057160        3.197 -2417865.432  5386478.883  2404470.861    -0.011    -0.010    -0.005     0.014    -0.003    -0.006   0.013  -0.003  -0.007  -0.062  -0.022  -0.145  -4.6848181346   0.1592477879   0.2040703278 1        0.004        0.006        0.004        0.003        0.004        0.006   0.0207483750     0.002     0.001     0.001   0.0034487785   0.0036823440   0.0000000000
1739447639.800 2353.00000 388457.800  22.2930575528 114.1742057145        3.197 -2417865.431  5386478.883  2404470.861    -0.009    -0.003    -0.004     0.009    -0.004    -0.001   0.009  -0.004  -0.002   0.058  -0.087   0.131  -4.7173964380   0.0636213778   0.2149766684 1        0.004        0.006        0.004        0.003        0.004        0.006   0.0207601860     0.002     0.001     0.001   0.0034685070   0.0037018070   0.0000000000
1739447639.900 2353.00000 388457.900  22.2930575493 114.1742057133        3.197 -2417865.431  5386478.883  2404470.861    -0.008    -0.005    -0.007     0.009    -0.006    -0.004   0.009  -0.006  -0.004  -0.059   0.038  -0.062  -4.7224098256  -0.0766017186   0.1447090249 1        0.004        0.006        0.004        0.003        0.004        0.006   0.0207700264     0.002     0.001     0.001   0.0034832757   0.0037165578   0.0000000000
1739447640.000 2353.00000 388458.000  22.2930575463 114.1742057110        3.197 -2417865.431  5386478.884  2404470.860    -0.005    -0.007    -0.005     0.007    -0.003    -0.006   0.007  -0.003  -0.006   0.031  -0.014  -0.055  -4.7181985809  -0.1346049748   0.1085583134 1        0.004        0.006        0.004        0.003        0.004        0.006   0.0207768548     0.002     0.001     0.001   0.0034901751   0.0037238696   0.0000000000
1739447640.100 2353.00000 388458.100  22.2930575463 114.1742057135        3.197 -2417865.431  5386478.883  2404470.860     0.001    -0.008     0.001     0.002     0.003    -0.007   0.002   0.003  -0.007  -0.109   0.077   0.035  -4.7033961904  -0.1068651164   0.0330796684 1        0.004        0.006        0.004        0.003        0.004        0.006   0.0207799170     0.002     0.001     0.001   0.0034880389   0.0037225920   0.0000000000
1739447640.200 2353.00000 388458.200  22.2930575485 114.1742057127        3.197 -2417865.431  5386478.883  2404470.861     0.007    -0.009     0.001    -0.002     0.005    -0.010  -0.003   0.005  -0.010  -0.032   0.068  -0.058  -4.6905390498  -0.0166557824  -0.0089381855 1        0.004        0.006        0.004        0.003        0.004        0.006   0.0207792297     0.002     0.001     0.001   0.0034777767   0.0037135256   0.0000000000
1739447640.300 2353.00000 388458.300  22.2930575507 114.1742057109        3.196 -2417865.431  5386478.883  2404470.861     0.009    -0.005     0.001    -0.006     0.004    -0.007  -0.006   0.004  -0.007  -0.024  -0.025   0.079  -4.6913297156   0.0482601679  -0.0814142828 1        0.004        0.006        0.004        0.003        0.004        0.006   0.0207761880     0.002     0.001     0.001   0.0034625498   0.0036996962   0.0000000000
1739447640.400 2353.00000 388458.400  22.2930575514 114.1742057081        3.196 -2417865.430  5386478.883  2404470.861     0.013    -0.004     0.001    -0.010     0.004    -0.008  -0.010   0.004  -0.007  -0.151   0.067   0.057  -4.6220503455   0.1229682464  -0.2477443371 1        0.004        0.006        0.004        0.003        0.004        0.006   0.0207754970     0.002     0.001     0.001   0.0034533956   0.0036916311   0.0000000000
1739447640.500 2353.00000 388458.500  22.2930575518 114.1742057013        3.196 -2417865.430  5386478.883  2404470.861     0.019     0.004     0.005    -0.019     0.006    -0.002  -0.019   0.006  -0.001  -0.016   0.052   0.052  -4.4508450146   0.1138896857  -0.4695847497 1        0.004        0.006        0.004        0.003        0.004        0.006   0.0207778178     0.002     0.001     0.001   0.0034519108   0.0036908367   0.0000000000
1739447640.600 2353.00000 388458.600  22.2930575594 114.1742056816        3.195 -2417865.428  5386478.883  2404470.861     0.024     0.002     0.007    -0.023     0.009    -0.005  -0.023   0.010  -0.003  -0.041  -0.024   0.060  -4.2740558806   0.0952427020  -0.6999828723 1        0.004        0.006        0.004        0.003        0.004        0.006   0.0207832884     0.002     0.001     0.001   0.0034582485   0.0036974621   0.0000000000
1739447640.700 2353.00000 388458.700  22.2930575645 114.1742056616        3.195 -2417865.426  5386478.883  2404470.862     0.018     0.004    -0.000    -0.018     0.001    -0.004  -0.018   0.002  -0.003  -0.022  -0.071  -0.227  -4.2227763043  -0.0096888541  -1.0797737328 1        0.004        0.006        0.004        0.003        0.004        0.006   0.0207919925     0.002     0.001     0.001   0.0034722928   0.0037114192   0.0000000000
1739447640.800 2353.00000 388458.800  22.2930575662 114.1742056432        3.194 -2417865.423  5386478.883  2404470.861     0.023    -0.013    -0.002    -0.016     0.006    -0.021  -0.017   0.006  -0.019   0.146   0.048   0.033  -4.1871556240  -0.0610229140  -1.3240394470 1        0.004        0.006        0.004        0.003        0.004        0.006   0.0208034124     0.002     0.001     0.001   0.0034924261   0.0037311953   0.0000000000
1739447640.900 2353.00000 388458.900  22.2930575712 114.1742056417        3.192 -2417865.422  5386478.881  2404470.861    -0.011    -0.018     0.007     0.017     0.011    -0.009   0.017   0.011  -0.010   0.393   0.193   0.247  -4.0232349334  -0.0122525005  -1.4234049452 1        0.004        0.006        0.004        0.003        0.004        0.006   0.0208128691     0.002     0.001     0.001   0.0035073692   0.0037460106   0.0000000000
1739447641.000 2353.00000 388459.000  22.2930575860 114.1742056668        3.193 -2417865.425  5386478.880  2404470.863    -0.029    -0.004     0.020     0.028     0.015     0.015   0.029   0.015   0.013   0.047  -0.022  -0.133  -3.8469360393   0.1760183642  -1.3811552836 1        0.004        0.006        0.004        0.003        0.004        0.006   0.0208193194     0.002     0.001     0.001   0.0035141448   0.0037530656   0.0000000000
1739447641.100 2353.00000 388459.100  22.2930576077 114.1742056997        3.193 -2417865.428  5386478.878  2404470.865    -0.033    -0.033     0.026     0.043     0.031    -0.005   0.044   0.030  -0.008   0.207  -0.113  -0.180  -3.8374795920   0.4854446140  -1.0776357164 1        0.004        0.006        0.004        0.003        0.004        0.006   0.0208220370     0.002     0.001     0.001   0.0035115757   0.0037512055   0.0000000000
1739447641.200 2353.00000 388459.200  22.2930576269 114.1742057445        3.195 -2417865.432  5386478.877  2404470.868    -0.055     0.008     0.027     0.047     0.014     0.038   0.050   0.014   0.034  -0.152  -0.161   0.007  -4.1636333852   0.7565451440  -0.8298285400 1        0.004        0.006        0.004        0.003        0.004        0.006   0.0208210628     0.002     0.001     0.001   0.0035006164   0.0037412853   0.0000000000
1739447641.300 2353.00000 388459.300  22.2930576308 114.1742057867        3.196 -2417865.437  5386478.876  2404470.869    -0.043    -0.024    -0.006     0.049    -0.004    -0.006   0.048  -0.005  -0.010  -0.165  -0.065  -0.344  -4.7484558109   0.9047203116  -0.6613736201 1        0.004        0.006        0.004        0.003        0.004        0.006   0.0208177660     0.002     0.001     0.001   0.0034844712   0.0037263646   0.0000000000
1739447641.400 2353.00000 388459.400  22.2930576288 114.1742058129        3.194 -2417865.438  5386478.874  2404470.868    -0.011    -0.012    -0.005     0.015    -0.002    -0.008   0.014  -0.003  -0.009  -0.202   0.063   0.298  -5.2880687768   0.8602214449  -0.7521416750 1        0.004        0.006        0.004        0.003        0.004        0.006   0.0208168104     0.002     0.001     0.001   0.0034744120   0.0037172083   0.0000000000
1739447641.500 2353.00000 388459.500  22.2930576278 114.1742058148        3.195 -2417865.439  5386478.874  2404470.868    -0.004     0.012    -0.000    -0.002    -0.005     0.011  -0.001  -0.005   0.012  -0.123  -0.014  -0.091  -5.7124436484   0.6019494596  -0.5833226016 1        0.004        0.006        0.004        0.003        0.004        0.006   0.0208188463     0.002     0.001     0.001   0.0034720572   0.0037153389   0.0000000000
1739447641.600 2353.00000 388459.600  22.2930576281 114.1742058123        3.195 -2417865.439  5386478.874  2404470.868     0.005    -0.005    -0.001    -0.003     0.002    -0.007  -0.003   0.002  -0.007  -0.048   0.189   0.007  -5.8696318769   0.3921064550  -0.3642863089 1        0.004        0.006        0.004        0.003        0.004        0.006   0.0208240040     0.002     0.001     0.001   0.0034775536   0.0037208924   0.0000000000
1739447641.700 2353.00000 388459.700  22.2930576345 114.1742058062        3.195 -2417865.438  5386478.874  2404470.869     0.009     0.005     0.008    -0.010     0.007     0.004  -0.009   0.007   0.005  -0.063   0.114   0.023  -5.8285390569   0.3565115928  -0.1417723472 1        0.004        0.006        0.004        0.003        0.004        0.006   0.0208323598     0.002     0.001     0.001   0.0034907758   0.0037337667   0.0000000000
1739447641.800 2353.00000 388459.800  22.2930576455 114.1742057973        3.195 -2417865.437  5386478.874  2404470.870     0.011    -0.003     0.010    -0.009     0.012    -0.003  -0.009   0.012  -0.002  -0.004  -0.052   0.007  -5.6725315487   0.4707447734   0.1808537212 1        0.004        0.006        0.004        0.003        0.004        0.006   0.0208433960     0.002     0.001     0.001   0.0035101057   0.0037524535   0.0000000000
1739447641.900 2353.00000 388459.900  22.2930576541 114.1742057908        3.195 -2417865.436  5386478.874  2404470.871     0.005    -0.002     0.005    -0.004     0.006    -0.002  -0.004   0.006  -0.002  -0.050   0.028  -0.087  -5.5977574962   0.6280592474   0.5087582447 1        0.004        0.006        0.004        0.003        0.004        0.006   0.0208524745     0.002     0.001     0.001   0.0035242904   0.0037662627   0.0000000000
1739447642.000 2353.00000 388460.000  22.2930576615 114.1742057813        3.194 -2417865.435  5386478.874  2404470.871     0.014    -0.003     0.004    -0.012     0.007    -0.007  -0.013   0.006  -0.005  -0.073  -0.336   0.310  -5.6836725728   0.7031395358   0.9451798267 1        0.004        0.006        0.004        0.003        0.004        0.006   0.0208585542     0.002     0.001     0.001   0.0035303219   0.0037723763   0.0000000000
1739447642.100 2353.00000 388460.100  22.2930576640 114.1742057768        3.193 -2417865.434  5386478.873  2404470.871     0.005    -0.003    -0.005    -0.004    -0.003    -0.006  -0.004  -0.003  -0.006   0.024  -0.108  -0.064  -5.6365352904   0.8141759367   1.3994842844 1        0.004        0.006        0.004        0.003        0.004        0.006   0.0208609272     0.002     0.001     0.001   0.0035270720   0.0037697128   0.0000000000
1739447642.200 2353.00000 388460.200  22.2930576621 114.1742057729        3.193 -2417865.433  5386478.873  2404470.871     0.002    -0.005    -0.003     0.000    -0.001    -0.006  -0.000  -0.001  -0.006   0.106   0.170   0.073  -5.6052316328   0.8995095394   1.8111400291 1        0.004        0.006        0.004        0.003        0.004        0.006   0.0208596624     0.002     0.001     0.001   0.0035155353   0.0037591746   0.0000000000
1739447642.300 2353.00000 388460.300  22.2930576664 114.1742057754        3.192 -2417865.433  5386478.872  2404470.871    -0.002    -0.004     0.003     0.003     0.003    -0.002   0.003   0.004  -0.002   0.044  -0.061  -0.025  -5.4853175125   1.0531019243   2.1083268091 1        0.004        0.006        0.004        0.003        0.004        0.006   0.0208561067     0.002     0.001     0.001   0.0034988800   0.0037437670   0.0000000000
1739447642.400 2353.00000 388460.400  22.2930576720 114.1742057792        3.192 -2417865.434  5386478.871  2404470.871    -0.001    -0.007     0.007     0.003     0.008    -0.003   0.003   0.008  -0.004  -0.084   0.053  -0.030  -5.4149782110   1.2258977945   2.3328294611 1        0.004        0.006        0.004        0.003        0.004        0.006   0.0208548848     0.002     0.001     0.001   0.0034883597   0.0037341777   0.0000000000
1739447642.500 2353.00000 388460.500  22.2930576820 114.1742057807        3.192 -2417865.433  5386478.871  2404470.872    -0.004     0.003     0.008     0.002     0.005     0.007   0.003   0.006   0.006  -0.029  -0.152   0.146  -5.4652324134   1.2933175774   2.5547787014 1        0.004        0.006        0.004        0.003        0.004        0.006   0.0208566375     0.002     0.001     0.001   0.0034855967   0.0037319225   0.0000000000
1739447642.600 2353.00000 388460.600  22.2930576861 114.1742057842        3.192 -2417865.434  5386478.871  2404470.873    -0.007     0.002     0.001     0.006    -0.000     0.005   0.006   0.000   0.004  -0.121  -0.133  -0.142  -5.4867929738   1.2296876495   2.6270659536 1        0.004        0.006        0.004        0.003        0.004        0.006   0.0208614878     0.002     0.001     0.001   0.0034907339   0.0037371339   0.0000000000
1739447642.700 2353.00000 388460.700  22.2930576856 114.1742057885        3.193 -2417865.435  5386478.871  2404470.873    -0.008    -0.001    -0.004     0.008    -0.005     0.001   0.008  -0.004  -0.000  -0.024  -0.018  -0.129  -5.5891804694   1.1345250817   2.6262579660 1        0.004        0.006        0.004        0.003        0.004        0.006   0.0208695047     0.002     0.001     0.001   0.0035036423   0.0037497031   0.0000000000
1739447642.800 2353.00000 388460.800  22.2930576851 114.1742057921        3.192 -2417865.435  5386478.871  2404470.873     0.003    -0.013    -0.003     0.003     0.002    -0.013   0.001   0.002  -0.013  -0.110   0.083  -0.041  -5.7579991769   1.1007091801   2.5479490795 1        0.004        0.006        0.004        0.003        0.004        0.006   0.0208801702     0.002     0.001     0.001   0.0035226960   0.0037681130   0.0000000000
1739447642.900 2353.00000 388460.900  22.2930576905 114.1742057864        3.190 -2417865.433  5386478.869  2404470.873     0.017    -0.018     0.002    -0.009     0.011    -0.021  -0.011   0.010  -0.020  -0.204   0.150  -0.131  -6.1654905760   1.1966282881   2.6087888473 1        0.004        0.006        0.004        0.003        0.004        0.006   0.0208888780     0.002     0.001     0.001   0.0035366206   0.0037816481   0.0000000000
1739447643.000 2353.00000 388461.000  22.2930577053 114.1742057654        3.188 -2417865.430  5386478.868  2404470.873     0.032    -0.019     0.007    -0.021     0.018    -0.025  -0.025   0.016  -0.023  -0.006   0.003   0.003  -6.7200157143   1.4555763602   2.9859237127 1        0.004        0.006        0.004        0.003        0.004        0.006   0.0208945796     0.002     0.001     0.001   0.0035423860   0.0037874724   0.0000000000
1739447643.100 2353.00000 388461.100  22.2930577254 114.1742057460        3.185 -2417865.427  5386478.865  2404470.874     0.024    -0.012     0.012    -0.017     0.019    -0.014  -0.020   0.017  -0.013  -0.022   0.020   0.164  -7.0855918159   1.7034237254   3.3038812678 1        0.004        0.006        0.004        0.003        0.004        0.006   0.0208966024     0.002     0.001     0.001   0.0035388770   0.0037845296   0.0000000000
1739447643.200 2353.00000 388461.200  22.2930577451 114.1742057258        3.184 -2417865.424  5386478.865  2404470.876     0.016     0.007     0.015    -0.018     0.014     0.006  -0.018   0.013   0.008   0.089  -0.130   0.190  -7.3208623108   1.7234512194   3.6564651960 1        0.004        0.006        0.004        0.003        0.004        0.006   0.0208950359     0.002     0.001     0.001   0.0035271044   0.0037737500   0.0000000000
1739447643.300 2353.00000 388461.300  22.2930577583 114.1742057095        3.185 -2417865.423  5386478.866  2404470.878     0.006     0.017     0.014    -0.013     0.008     0.017  -0.011   0.007   0.019   0.051  -0.123   0.010  -7.3763560097   1.5142419050   3.9351626682 1        0.004        0.006        0.004        0.003        0.004        0.006   0.0208912082     0.002     0.001     0.001   0.0035102300   0.0037581441   0.0000000000
1739447643.400 2353.00000 388461.400  22.2930577651 114.1742056962        3.187 -2417865.422  5386478.867  2404470.879     0.007     0.014     0.005    -0.012     0.001     0.011  -0.010   0.000   0.013   0.017  -0.042  -0.071  -7.3941607250   1.1552486665   4.1261242179 1        0.004        0.006        0.004        0.003        0.004        0.006   0.0208897125     0.002     0.001     0.001   0.0034995293   0.0037484348   0.0000000000
1739447643.500 2353.00000 388461.500  22.2930577670 114.1742056837        3.187 -2417865.421  5386478.868  2404470.879     0.005     0.015    -0.000    -0.011    -0.005     0.011  -0.009  -0.005   0.012   0.014  -0.055  -0.004  -7.5024497441   0.8527244921   4.2249965109 1        0.004        0.006        0.004        0.003        0.004        0.006   0.0208911896     0.002     0.001     0.001   0.0034966299   0.0037461484   0.0000000000
1739447643.600 2353.00000 388461.600  22.2930577679 114.1742056653        3.188 -2417865.420  5386478.869  2404470.880     0.016     0.011     0.001    -0.019    -0.000     0.004  -0.018  -0.002   0.007  -0.040  -0.108  -0.062  -7.7254394842   0.6151559107   4.2874060164 1        0.004        0.006        0.004        0.003        0.004        0.006   0.0208957437     0.002     0.001     0.001   0.0035016756   0.0037514174   0.0000000000
1739447643.700 2353.00000 388461.700  22.2930577699 114.1742056418        3.188 -2417865.418  5386478.870  2404470.880     0.020     0.010    -0.000    -0.022    -0.001     0.001  -0.021  -0.002   0.004   0.061   0.039  -0.007  -7.9805059545   0.5445247372   4.3789246592 1        0.004        0.006        0.004        0.003        0.004        0.006   0.0209034458     0.002     0.001     0.001   0.0035145348   0.0037641299   0.0000000000
1739447643.800 2353.00000 388461.800  22.2930577704 114.1742056198        3.188 -2417865.415  5386478.871  2404470.880     0.014     0.005    -0.004    -0.014    -0.004    -0.003  -0.014  -0.005  -0.001   0.163  -0.052   0.028  -8.2690812514   0.5455932578   4.4754191296 1        0.004        0.006        0.004        0.003        0.004        0.006   0.0209137741     0.002     0.001     0.001   0.0035335734   0.0037827473   0.0000000000
1739447643.900 2353.00000 388461.900  22.2930577662 114.1742056083        3.188 -2417865.414  5386478.872  2404470.880     0.007     0.004    -0.008    -0.008    -0.008    -0.002  -0.007  -0.008  -0.001  -0.055  -0.007  -0.121  -8.4947097230   0.5916620364   4.4698957964 1        0.004        0.006        0.004        0.003        0.004        0.006   0.0209221430     0.002     0.001     0.001   0.0035474852   0.0037964315   0.0000000000
1739447644.000 2353.00000 388462.000  22.2930577604 114.1742055956        3.187 -2417865.413  5386478.872  2404470.879     0.011     0.004    -0.009    -0.012    -0.008    -0.004  -0.012  -0.009  -0.002   0.016  -0.043   0.016  -8.6562979350   0.6548793007   4.4721418558 1        0.004        0.006        0.004        0.003        0.004        0.006   0.0209274981     0.002     0.001     0.001   0.0035532292   0.0038023167   0.0000000000
1739447644.100 2353.00000 388462.100  22.2930577524 114.1742055828        3.187 -2417865.412  5386478.873  2404470.878     0.015     0.008    -0.008    -0.017    -0.008    -0.002  -0.016  -0.009   0.001  -0.139   0.105  -0.031  -8.7801945121   0.7713331410   4.5636778728 1        0.004        0.006        0.004        0.003        0.004        0.006   0.0209291894     0.002     0.001     0.001   0.0035496918   0.0037993384   0.0000000000
1739447644.200 2353.00000 388462.200  22.2930577576 114.1742055583        3.187 -2417865.409  5386478.873  2404470.878     0.029     0.003     0.011    -0.027     0.013    -0.005  -0.029   0.011  -0.000  -0.044   0.153  -0.099  -8.8805994771   0.9642710877   5.0258891091 1        0.004        0.006        0.004        0.003        0.004        0.006   0.0209273323     0.002     0.001     0.001   0.0035378884   0.0037884449   0.0000000000
1739447644.300 2353.00000 388462.300  22.2930577782 114.1742055320        3.186 -2417865.406  5386478.873  2404470.880     0.029    -0.012     0.017    -0.022     0.025    -0.014  -0.026   0.022  -0.011   0.160   0.021  -0.122  -8.9179762262   1.2295957212   5.6236546536 1        0.004        0.006        0.004        0.003        0.004        0.006   0.0209232345     0.002     0.001     0.001   0.0035209931   0.0037726876   0.0000000000
1739447644.400 2353.00000 388462.400  22.2930577982 114.1742055200        3.184 -2417865.404  5386478.871  2404470.881     0.011    -0.023     0.012    -0.001     0.021    -0.019  -0.006   0.020  -0.019   0.123   0.042   0.041  -9.0158635311   1.4993362397   5.9567587939 1        0.004        0.006        0.004        0.003        0.004        0.006   0.0209214650     0.002     0.001     0.001   0.0035103143   0.0037629139   0.0000000000
1739447644.500 2353.00000 388462.500  22.2930578165 114.1742055219        3.182 -2417865.403  5386478.869  2404470.883    -0.002    -0.014     0.016     0.008     0.019    -0.005   0.005   0.020  -0.006   0.036   0.014   0.204  -9.2691908885   1.5866433206   5.9808715107 1        0.004        0.006        0.004        0.003        0.004        0.006   0.0209226571     0.002     0.001     0.001   0.0035074870   0.0037606712   0.0000000000
1739447644.600 2353.00000 388462.600  22.2930578369 114.1742055246        3.182 -2417865.403  5386478.868  2404470.885    -0.005    -0.015     0.015     0.010     0.018    -0.005   0.007   0.019  -0.007   0.146   0.087  -0.089  -9.5501009225   1.4810126687   6.0196781260 1        0.004        0.006        0.004        0.003        0.004        0.006   0.0209269114     0.002     0.001     0.001   0.0035126559   0.0037660941   0.0000000000
1739447644.700 2353.00000 388462.700  22.2930578537 114.1742055343        3.182 -2417865.404  5386478.866  2404470.886    -0.013    -0.012     0.008     0.017     0.010    -0.002   0.015   0.012  -0.005   0.184  -0.034   0.091  -9.8295696166   1.3438122381   5.9812151448 1        0.004        0.006        0.004        0.003        0.004        0.006   0.0209342856     0.002     0.001     0.001   0.0035256871   0.0037790660   0.0000000000
1739447644.800 2353.00000 388462.800  22.2930578612 114.1742055511        3.182 -2417865.405  5386478.865  2404470.887    -0.015    -0.008    -0.001     0.018    -0.000    -0.001   0.017   0.001  -0.005  -0.073  -0.166  -0.092  -9.9610029488   1.2815032501   5.8637505239 1        0.004        0.006        0.004        0.003        0.004        0.006   0.0209442601     0.002     0.001     0.001   0.0035449341   0.0037980229   0.0000000000
1739447644.900 2353.00000 388462.900  22.2930578612 114.1742055669        3.181 -2417865.406  5386478.864  2404470.887    -0.011    -0.014    -0.000     0.016     0.003    -0.008   0.014   0.004  -0.010  -0.104   0.123   0.076  -9.9569750906   1.2602436484   5.7261630983 1        0.004        0.006        0.004        0.003        0.004        0.006   0.0209522732     0.002     0.001     0.001   0.0035590034   0.0038119811   0.0000000000
1739447645.000 2353.00000 388463.000  22.2930578643 114.1742055740        3.181 -2417865.407  5386478.863  2404470.887    -0.002    -0.004    -0.000     0.003     0.001    -0.003   0.003   0.001  -0.004   0.014  -0.023   0.064  -9.9534973015   1.3453163621   5.8681191462 1        0.004        0.006        0.004        0.003        0.004        0.006   0.0209572595     0.002     0.001     0.001   0.0035648372   0.0038180375   0.0000000000
1739447645.100 2353.00000 388463.100  22.2930578645 114.1742055773        3.181 -2417865.407  5386478.863  2404470.887    -0.004    -0.009    -0.005     0.008    -0.002    -0.008   0.006  -0.001  -0.009   0.120  -0.111   0.051 -10.0223326693   1.4111693269   5.8893499661 1        0.004        0.006        0.004        0.003        0.004        0.006   0.0209586006     0.002     0.001     0.001   0.0035613209   0.0038151047   0.0000000000
1739447645.200 2353.00000 388463.200  22.2930578594 114.1742055867        3.181 -2417865.408  5386478.863  2404470.886    -0.012     0.000    -0.009     0.011    -0.010     0.002   0.012  -0.009  -0.000  -0.081   0.022   0.075 -10.1042253587   1.5034385857   5.7242549369 1        0.004        0.006        0.004        0.003        0.004        0.006   0.0209564380     0.002     0.001     0.001   0.0035494845   0.0038041363   0.0000000000
1739447645.300 2353.00000 388463.300  22.2930578505 114.1742055933        3.181 -2417865.409  5386478.863  2404470.885    -0.008     0.004    -0.013     0.006    -0.015     0.001   0.007  -0.014   0.001  -0.045  -0.099  -0.083 -10.0388882141   1.6359175718   5.4981378160 1        0.004        0.006        0.004        0.003        0.004        0.006   0.0209520552     0.002     0.001     0.001   0.0035325384   0.0037882267   0.0000000000
1739447645.400 2353.00000 388463.400  22.2930578425 114.1742055980        3.181 -2417865.409  5386478.863  2404470.885    -0.003     0.006     0.003     0.001    -0.000     0.008   0.002  -0.000   0.007  -0.134   0.125   0.113  -9.8784540362   1.7558092302   5.2066993172 1        0.004        0.006        0.004        0.003        0.004        0.006   0.0209500100     0.002     0.001     0.001   0.0035218862   0.0037783617   0.0000000000
1739447645.500 2353.00000 388463.500  22.2930578463 114.1742055965        3.182 -2417865.410  5386478.864  2404470.886    -0.004     0.011     0.016    -0.001     0.010     0.017   0.001   0.010   0.017   0.096   0.136   0.145  -9.7709844607   1.7925958649   4.9941178663 1        0.004        0.006        0.004        0.003        0.004        0.006   0.0209509227     0.002     0.001     0.001   0.0035191788   0.0037761074   0.0000000000
1739447645.600 2353.00000 388463.600  22.2930578620 114.1742055968        3.185 -2417865.410  5386478.866  2404470.888    -0.011     0.020     0.022     0.002     0.012     0.029   0.006   0.013   0.028   0.042   0.022   0.145  -9.6565359268   1.6474739362   4.8217979283 1        0.004        0.006        0.004        0.003        0.004        0.006   0.0209548865     0.002     0.001     0.001   0.0035245628   0.0037815988   0.0000000000
1739447645.700 2353.00000 388463.700  22.2930578798 114.1742055971        3.188 -2417865.411  5386478.868  2404470.891    -0.007     0.022     0.027    -0.003     0.016     0.032   0.001   0.016   0.032  -0.031  -0.020  -0.157  -9.3916431405   1.3591385891   4.8727111966 1        0.004        0.006        0.004        0.003        0.004        0.006   0.0209619552     0.002     0.001     0.001   0.0035379007   0.0037947169   0.0000000000
1739447645.800 2353.00000 388463.800  22.2930578920 114.1742056001        3.189 -2417865.412  5386478.869  2404470.893    -0.006    -0.014    -0.005     0.011    -0.000    -0.011   0.009   0.000  -0.013   0.144  -0.158  -0.549  -9.2630201076   1.0855546958   4.9771384131 1        0.004        0.006        0.004        0.003        0.004        0.006   0.0209716000     0.002     0.001     0.001   0.0035575214   0.0038138779   0.0000000000
1739447645.900 2353.00000 388463.900  22.2930578911 114.1742056146        3.187 -2417865.413  5386478.866  2404470.892    -0.002    -0.025    -0.016     0.011    -0.007    -0.026   0.008  -0.006  -0.028  -0.114  -0.154   0.027  -9.3597499871   1.0013669036   4.9098814236 1        0.004        0.006        0.004        0.003        0.004        0.006   0.0209792797     0.002     0.001     0.001   0.0035719001   0.0038279796   0.0000000000
1739447646.000 2353.00000 388464.000  22.2930578847 114.1742056251        3.185 -2417865.413  5386478.864  2404470.891    -0.004    -0.013    -0.017     0.009    -0.012    -0.016   0.008  -0.011  -0.017   0.104   0.003  -0.027  -9.4019566688   1.0260757378   4.7863175332 1        0.004        0.006        0.004        0.003        0.004        0.006   0.0209839158     0.002     0.002     0.001   0.0035779537   0.0038340844   0.0000000000
1739447646.100 2353.00000 388464.100  22.2930578695 114.1742056343        3.185 -2417865.414  5386478.864  2404470.889    -0.013     0.000    -0.020     0.012    -0.021    -0.003   0.013  -0.020  -0.005   0.093   0.021   0.209  -9.3939839681   0.9754060518   4.4120179009 1        0.004        0.006        0.004        0.003        0.004        0.006   0.0209849179     0.002     0.002     0.001   0.0035745467   0.0038310899   0.0000000000
1739447646.200 2353.00000 388464.200  22.2930578518 114.1742056442        3.185 -2417865.415  5386478.865  2404470.887    -0.018    -0.002    -0.023     0.018    -0.023    -0.004   0.019  -0.022  -0.007   0.135  -0.071  -0.063  -9.5247359735   0.9195284527   3.8993610439 1        0.004        0.006        0.004        0.003        0.004        0.006   0.0209824480     0.002     0.002     0.001   0.0035627191   0.0038199599   0.0000000000
1739447646.300 2353.00000 388464.300  22.2930578294 114.1742056601        3.185 -2417865.417  5386478.864  2404470.885    -0.017     0.002    -0.023     0.015    -0.024    -0.000   0.016  -0.023  -0.003  -0.140   0.108   0.130  -9.5835958137   0.8939028875   3.1676381660 1        0.004        0.006        0.004        0.003        0.004        0.006   0.0209777802     0.002     0.002     0.001   0.0035457308   0.0038038159   0.0000000000
1739447646.400 2353.00000 388464.400  22.2930578145 114.1742056708        3.185 -2417865.418  5386478.865  2404470.883    -0.015     0.004    -0.005     0.013    -0.008     0.007   0.014  -0.008   0.005   0.068   0.111   0.073  -9.4140572706   0.9830868403   2.4659207993 1        0.004        0.006        0.004        0.003        0.004        0.006   0.0209754575     0.002     0.002     0.001   0.0035351142   0.0037937562   0.0000000000
1739447646.500 2353.00000 388464.500  22.2930578101 114.1742056865        3.186 -2417865.420  5386478.865  2404470.883    -0.015    -0.001     0.007     0.014     0.005     0.008   0.014   0.005   0.005  -0.184   0.214  -0.009  -9.1672817503   1.1055650375   2.0173442896 2        0.004        0.006        0.004        0.003        0.004        0.006   0.0209760945     0.002     0.002     0.001   0.0035325410   0.0037913602   0.0000000000
1739447646.600 2353.00000 388464.600  22.2930578269 114.1742056911        3.187 -2417865.421  5386478.865  2404470.885     0.003     0.000     0.024    -0.002     0.022     0.008  -0.002   0.022   0.008  -0.130  -0.041  -0.053  -8.8705035989   1.3346309853   2.1075884740 2        0.004        0.006        0.004        0.003        0.004        0.006   0.0209797788     0.002     0.002     0.001   0.0035381585   0.0037967621   0.0000000000
1739447646.700 2353.00000 388464.700  22.2930578496 114.1742056930        3.187 -2417865.420  5386478.864  2404470.888    -0.008    -0.011     0.019     0.011     0.021     0.001   0.010   0.021  -0.001   0.226  -0.146   0.115  -8.6554840761   1.4433609493   2.5233525098 2        0.004        0.006        0.004        0.003        0.004        0.006   0.0209865551     0.002     0.002     0.001   0.0035518247   0.0038098395   0.0000000000
1739447646.800 2353.00000 388464.800  22.2930578627 114.1742057111        3.188 -2417865.422  5386478.864  2404470.889    -0.029     0.001     0.013     0.026     0.007     0.017   0.027   0.009   0.013   0.158   0.055  -0.085  -8.5561793159   1.3767976584   2.8793015398 2        0.004        0.006        0.004        0.003        0.004        0.006   0.0209958963     0.002     0.002     0.001   0.0035718400   0.0038289938   0.0000000000
1739447646.900 2353.00000 388464.900  22.2930578723 114.1742057412        3.189 -2417865.425  5386478.863  2404470.891    -0.026    -0.017     0.007     0.031     0.009    -0.002   0.029   0.010  -0.007  -0.107  -0.104  -0.047  -8.4730630311   1.2613692332   3.1673510518 2        0.004        0.006        0.004        0.003        0.004        0.006   0.0210032593     0.002     0.002     0.001   0.0035865034   0.0038430155   0.0000000000
1739447647.000 2353.00000 388465.000  22.2930578724 114.1742057675        3.188 -2417865.428  5386478.861  2404470.891    -0.020    -0.012    -0.006     0.023    -0.004    -0.004   0.023  -0.003  -0.008  -0.078   0.108  -0.149  -8.3715149925   1.1401974715   3.3201758312 2        0.004        0.006        0.004        0.003        0.004        0.006   0.0210075621     0.002     0.002     0.001   0.0035926907   0.0038489262   0.0000000000
1739447647.100 2353.00000 388465.100  22.2930578747 114.1742057870        3.188 -2417865.429  5386478.860  2404470.891    -0.013    -0.021     0.001     0.021     0.006    -0.013   0.018   0.007  -0.016   0.080  -0.023   0.025  -8.3995012393   1.1830605918   3.5372639466 2        0.004        0.006        0.004        0.003        0.004        0.006   0.0210082363     0.002     0.002     0.001   0.0035892541   0.0038456249   0.0000000000
1739447647.200 2353.00000 388465.200  22.2930578799 114.1742058058        3.187 -2417865.431  5386478.858  2404470.891    -0.014    -0.015    -0.000     0.019     0.003    -0.008   0.018   0.004  -0.010  -0.108  -0.043   0.083  -8.4533533864   1.2937961089   3.5536590473 2        0.004        0.006        0.004        0.003        0.004        0.006   0.0210054703     0.002     0.002     0.001   0.0035772559   0.0038340988   0.0000000000
1739447647.300 2353.00000 388465.300  22.2930578805 114.1742058171        3.186 -2417865.431  5386478.857  2404470.891    -0.006    -0.005    -0.002     0.007    -0.001    -0.003   0.007  -0.001  -0.004  -0.084   0.036  -0.011  -8.3450933231   1.4123407632   3.6395365715 2        0.004        0.006        0.004        0.003        0.004        0.006   0.0210005213     0.002     0.002     0.001   0.0035600152   0.0038174838   0.0000000000
1739447647.400 2353.00000 388465.400  22.2930578798 114.1742058186        3.186 -2417865.432  5386478.857  2404470.890     0.004     0.009    -0.004    -0.007    -0.006     0.005  -0.006  -0.006   0.006  -0.110  -0.229   0.162  -8.0422156732   1.5620176079   3.7897148103 2        0.004        0.006        0.004        0.003        0.004        0.006   0.0209979229     0.002     0.002     0.001   0.0035492436   0.0038069810   0.0000000000
1739447647.500 2353.00000 388465.500  22.2930578675 114.1742058090        3.187 -2417865.431  5386478.859  2404470.890     0.007     0.023    -0.010    -0.016    -0.017     0.013  -0.013  -0.017   0.015  -0.093  -0.005   0.002  -7.6781128745   1.4199985459   3.8575500825 2        0.004        0.006        0.004        0.003        0.004        0.006   0.0209982917     0.002     0.001     0.001   0.0035466389   0.0038041822   0.0000000000
1739447647.600 2353.00000 388465.600  22.2930578581 114.1742057866        3.188 -2417865.430  5386478.861  2404470.889     0.018     0.025    -0.010    -0.027    -0.015     0.010  -0.024  -0.017   0.014  -0.120   0.022  -0.062  -7.5780200532   1.1627430808   3.9721647383 1        0.004        0.006        0.004        0.003        0.004        0.006   0.0210017078     0.002     0.001     0.001   0.0035523504   0.0038092185   0.0000000000
1739447647.700 2353.00000 388465.700  22.2930578512 114.1742057525        3.189 -2417865.427  5386478.863  2404470.889     0.032     0.021    -0.006    -0.038    -0.008     0.003  -0.036  -0.011   0.009  -0.097   0.078   0.022  -7.6752682733   0.9603516097   4.2046167793 1        0.004        0.006        0.004        0.003        0.004        0.006   0.0210082028     0.002     0.001     0.001   0.0035662286   0.0038219627   0.0000000000
1739447647.800 2353.00000 388465.800  22.2930578492 114.1742057125        3.189 -2417865.423  5386478.865  2404470.889     0.030     0.023    -0.003    -0.036    -0.006     0.006  -0.035  -0.009   0.011   0.162  -0.056  -0.046  -7.7736964599   0.9119254070   4.5309442844 1        0.004        0.006        0.004        0.003        0.004        0.006   0.0210172478     0.002     0.001     0.001   0.0035865384   0.0038408008   0.0000000000
1739447647.900 2353.00000 388465.900  22.2930578470 114.1742056870        3.190 -2417865.421  5386478.867  2404470.889     0.014     0.012     0.003    -0.017     0.000     0.006  -0.016  -0.001   0.008   0.071   0.059   0.017  -7.8050402576   0.9048350123   4.5584837618 1        0.004        0.006        0.004        0.003        0.004        0.006   0.0210243091     0.002     0.001     0.001   0.0036013667   0.0038543916   0.0000000000
1739447648.000 2353.00000 388466.000  22.2930578465 114.1742056718        3.191 -2417865.420  5386478.868  2404470.889     0.009     0.010     0.002    -0.012    -0.000     0.006  -0.011  -0.001   0.008   0.037   0.067  -0.131  -7.8040117556   0.9549888642   4.5952418381 1        0.004        0.006        0.004        0.003        0.004        0.006   0.0210282877     0.002     0.001     0.001   0.0036075250   0.0038596897   0.0000000000
1739447648.100 2353.00000 388466.100  22.2930578466 114.1742056540        3.192 -2417865.419  5386478.870  2404470.889     0.001     0.006    -0.003    -0.003    -0.004     0.003  -0.002  -0.004   0.004   0.158  -0.058   0.075  -7.8383806909   0.9921910440   4.7063068832 1        0.004        0.006        0.004        0.003        0.004        0.006   0.0210286453     0.002     0.001     0.001   0.0036038493   0.0038556189   0.0000000000
1739447648.200 2353.00000 388466.200  22.2930578461 114.1742056429        3.192 -2417865.418  5386478.871  2404470.889    -0.002     0.006     0.001    -0.001    -0.002     0.006   0.000  -0.002   0.006   0.009   0.065   0.019  -7.8531256206   0.9782251160   4.6957558448 1        0.004        0.006        0.004        0.003        0.004        0.006   0.0210255887     0.002     0.001     0.001   0.0035914341   0.0038432234   0.0000000000
1739447648.300 2353.00000 388466.300  22.2930578474 114.1742056320        3.193 -2417865.417  5386478.872  2404470.890    -0.001     0.006     0.002    -0.002    -0.000     0.006  -0.001  -0.000   0.006  -0.009   0.045  -0.135  -7.7981103651   0.9370524751   4.6832023139 1        0.004        0.006        0.004        0.003        0.004        0.006   0.0210203640     0.002     0.001     0.001   0.0035736475   0.0038256389   0.0000000000
1739447648.400 2353.00000 388466.400  22.2930578536 114.1742056211        3.193 -2417865.416  5386478.872  2404470.891     0.007    -0.007     0.010    -0.003     0.013    -0.005  -0.005   0.013  -0.005  -0.031   0.149   0.000  -7.7635523743   0.9175403868   4.7576096917 1        0.004        0.006        0.004        0.003        0.004        0.006   0.0210175049     0.002     0.001     0.001   0.0035624083   0.0038142048   0.0000000000
1739447648.500 2353.00000 388466.500  22.2930578641 114.1742056114        3.193 -2417865.415  5386478.872  2404470.892    -0.000    -0.009     0.007     0.004     0.010    -0.005   0.002   0.010  -0.005   0.089  -0.023  -0.078  -7.8086928208   0.9357689950   4.8928790887 1        0.004        0.006        0.004        0.003        0.004        0.006   0.0210176166     0.002     0.001     0.001   0.0035594434   0.0038105287   0.0000000000
1739447648.600 2353.00000 388466.600  22.2930578641 114.1742056143        3.193 -2417865.415  5386478.872  2404470.891    -0.008    -0.005     0.010     0.010     0.010     0.002   0.009   0.011   0.001   0.077  -0.151   0.047  -7.8713028442   0.9313285419   4.9567552897 1        0.004        0.006        0.004        0.003        0.004        0.006   0.0210207757     0.002     0.001     0.001   0.0035649005   0.0038147348   0.0000000000
1739447648.700 2353.00000 388466.700  22.2930578642 114.1742056236        3.193 -2417865.416  5386478.871  2404470.891    -0.017    -0.014     0.001     0.021     0.003    -0.005   0.020   0.005  -0.008   0.057  -0.056  -0.112  -7.8639229977   0.8949973362   4.8509068852 1        0.004        0.006        0.004        0.003        0.004        0.006   0.0210270062     0.002     0.001     0.001   0.0035786233   0.0038266880   0.0000000000
1739447648.800 2353.00000 388466.800  22.2930578644 114.1742056355        3.192 -2417865.417  5386478.871  2404470.891    -0.021    -0.008    -0.003     0.023    -0.004    -0.000   0.023  -0.002  -0.003  -0.000  -0.041   0.044  -7.7700670185   0.9286929068   4.6299805466 1        0.004        0.006        0.004        0.003        0.004        0.006   0.0210357774     0.002     0.001     0.001   0.0035988868   0.0038448172   0.0000000000
1739447648.900 2353.00000 388466.900  22.2930578643 114.1742056452        3.192 -2417865.418  5386478.870  2404470.891    -0.016    -0.010    -0.011     0.019    -0.010    -0.006   0.018  -0.008  -0.009  -0.103   0.000   0.023  -7.6392719758   0.9888020454   4.4032949660 1        0.004        0.006        0.004        0.003        0.004        0.006   0.0210425574     0.002     0.001     0.001   0.0036140440   0.0038583239   0.0000000000
1739447649.000 2353.00000 388467.000  22.2930578635 114.1742056489        3.192 -2417865.418  5386478.870  2404470.891    -0.010    -0.004    -0.013     0.011    -0.012    -0.004   0.011  -0.012  -0.005  -0.150   0.087   0.054  -7.5905964361   1.0419237504   4.1700383992 1        0.004        0.006        0.004        0.003        0.004        0.006   0.0210462362     0.002     0.001     0.001   0.0036210457   0.0038643642   0.0000000000
1739447649.100 2353.00000 388467.100  22.2930578626 114.1742056481        3.192 -2417865.418  5386478.870  2404470.891    -0.001     0.000    -0.007     0.001    -0.007    -0.002   0.001  -0.007  -0.002  -0.073  -0.033  -0.003  -7.5920489144   1.0121556925   4.0106642616 1        0.004        0.006        0.004        0.003        0.004        0.006   0.0210463013     0.002     0.001     0.001   0.0036187659   0.0038619174   0.0000000000
1739447649.200 2353.00000 388467.200  22.2930578619 114.1742056464        3.192 -2417865.418  5386478.870  2404470.891     0.009     0.002     0.004    -0.009     0.005    -0.001  -0.009   0.004   0.001  -0.091   0.135  -0.001  -7.6257818385   0.9795716295   4.0024799701 1        0.004        0.006        0.004        0.003        0.004        0.006   0.0210429803     0.002     0.001     0.001   0.0036082508   0.0038519318   0.0000000000
1739447649.300 2353.00000 388467.300  22.2930578615 114.1742056443        3.192 -2417865.418  5386478.870  2404470.891     0.005     0.004     0.000    -0.006    -0.000     0.001  -0.006  -0.001   0.002   0.066   0.013  -0.011  -7.6970662563   0.9649268399   4.0990202093 1        0.004        0.006        0.004        0.003        0.004        0.006   0.0210375041     0.002     0.001     0.001   0.0035929349   0.0038375375   0.0000000000
1739447649.400 2353.00000 388467.400  22.2930578609 114.1742056427        3.192 -2417865.418  5386478.870  2404470.891     0.000     0.003    -0.001    -0.002    -0.002     0.002  -0.001  -0.002   0.002   0.101  -0.061   0.031  -7.7057924211   0.9468241585   4.1547747270 1        0.004        0.006        0.004        0.003        0.004        0.006   0.0210344084     0.002     0.001     0.001   0.0035845141   0.0038295770   0.0000000000
1739447649.500 2353.00000 388467.500  22.2930578602 114.1742056420        3.192 -2417865.418  5386478.871  2404470.891    -0.009     0.010    -0.004     0.004    -0.008     0.010   0.006  -0.008   0.009  -0.001  -0.051   0.061  -7.6263003011   0.8823607341   3.9981825733 1        0.004        0.006        0.004        0.003        0.004        0.006   0.0210342929     0.002     0.001     0.001   0.0035847174   0.0038296427   0.0000000000
1739447649.600 2353.00000 388467.600  22.2930578597 114.1742056429        3.193 -2417865.418  5386478.871  2404470.891    -0.005     0.009    -0.006     0.001    -0.009     0.007   0.002  -0.009   0.007  -0.036  -0.050  -0.031  -7.5576398839   0.7513710063   3.8127989930 1        0.004        0.006        0.004        0.003        0.004        0.006   0.0210372284     0.002     0.001     0.001   0.0035937009   0.0038378907   0.0000000000
1739447649.700 2353.00000 388467.700  22.2930578571 114.1742056422        3.193 -2417865.418  5386478.871  2404470.891     0.002     0.008    -0.005    -0.006    -0.007     0.004  -0.004  -0.007   0.005  -0.119   0.023  -0.010  -7.5394341790   0.6620898723   3.6672649763 1        0.004        0.006        0.004        0.003        0.004        0.006   0.0210432298     0.002     0.001     0.001   0.0036112929   0.0038542000   0.0000000000
1739447649.800 2353.00000 388467.800  22.2930578543 114.1742056393        3.193 -2417865.418  5386478.871  2404470.890     0.003     0.012    -0.002    -0.008    -0.006     0.008  -0.007  -0.006   0.009  -0.004   0.054   0.026  -7.5706545732   0.5743788512   3.6168162001 1        0.004        0.006        0.004        0.003        0.004        0.006   0.0210517664     0.002     0.001     0.001   0.0036356354   0.0038768877   0.0000000000
1739447649.900 2353.00000 388467.900  22.2930578526 114.1742056362        3.193 -2417865.417  5386478.872  2404470.890     0.008     0.009     0.004    -0.011     0.002     0.006  -0.010   0.001   0.008  -0.041   0.043   0.042  -7.6706273545   0.4436840031   3.6415221943 1        0.004        0.006        0.004        0.003        0.004        0.006   0.0210583024     0.002     0.002     0.001   0.0036543282   0.0038943365   0.0000000000
1739447650.000 2353.00000 388468.000  22.2930578528 114.1742056331        3.193 -2417865.417  5386478.872  2404470.890     0.009    -0.000     0.005    -0.009     0.006    -0.002  -0.009   0.005  -0.001  -0.012   0.075  -0.108  -7.8306313748   0.2868169427   3.7548559921 1        0.004        0.006        0.004        0.003        0.004        0.006   0.0210617278     0.002     0.002     0.001   0.0036642740   0.0039036328   0.0000000000
1739447650.100 2353.00000 388468.100  22.2930578570 114.1742056283        3.194 -2417865.417  5386478.873  2404470.891     0.013    -0.006     0.004    -0.009     0.008    -0.009  -0.011   0.008  -0.007   0.009  -0.019  -0.026  -7.8961663292   0.2326437997   3.9178082981 1        0.004        0.006        0.004        0.003        0.004        0.006   0.0210615322     0.002     0.002     0.001   0.0036641338   0.0039034798   0.0000000000
1739447650.200 2353.00000 388468.200  22.2930578627 114.1742056241        3.194 -2417865.416  5386478.872  2404470.892     0.011    -0.009     0.003    -0.006     0.008    -0.011  -0.008   0.007  -0.010  -0.005   0.046  -0.021  -7.8606657027   0.2857599703   4.0747872024 1        0.004        0.006        0.004        0.003        0.004        0.006   0.0210579745     0.002     0.002     0.001   0.0036549123   0.0038947419   0.0000000000
1739447650.300 2353.00000 388468.300  22.2930578679 114.1742056218        3.193 -2417865.416  5386478.872  2404470.892     0.006    -0.007     0.004    -0.002     0.007    -0.007  -0.003   0.007  -0.007   0.098  -0.073  -0.018  -7.8019491606   0.4050065530   4.2212033968 1        0.004        0.006        0.004        0.003        0.004        0.006   0.0210522786     0.002     0.002     0.001   0.0036403749   0.0038808638   0.0000000000
1739447650.400 2353.00000 388468.400  22.2930578707 114.1742056235        3.193 -2417865.416  5386478.871  2404470.892    -0.001    -0.011     0.003     0.005     0.007    -0.007   0.004   0.007  -0.008   0.035  -0.015  -0.033  -7.7350591212   0.4708481742   4.2724087656 1        0.004        0.006        0.004        0.003        0.004        0.006   0.0210489724     0.002     0.002     0.001   0.0036329185   0.0038734425   0.0000000000
1739447650.500 2353.00000 388468.500  22.2930578704 114.1742056283        3.193 -2417865.416  5386478.871  2404470.892    -0.012    -0.003     0.001     0.012    -0.000     0.003   0.012   0.001   0.001   0.008  -0.016   0.026  -7.6761734124   0.5040452963   4.1468164197 2        0.004        0.006        0.004        0.003        0.004        0.006   0.0210486501     0.002     0.002     0.001   0.0036343494   0.0038741499   0.0000000000
1739447650.600 2353.00000 388468.600  22.2930578728 114.1742056307        3.193 -2417865.417  5386478.871  2404470.892    -0.006     0.001    -0.000     0.005    -0.001     0.003   0.006  -0.001   0.002  -0.056  -0.033  -0.001  -7.6251085159   0.4722145522   4.0113289886 2        0.004        0.006        0.004        0.003        0.004        0.006   0.0210513826     0.002     0.002     0.001   0.0036448245   0.0038831539   0.0000000000
1739447650.700 2353.00000 388468.700  22.2930578727 114.1742056321        3.193 -2417865.417  5386478.871  2404470.892    -0.005    -0.004    -0.003     0.006    -0.003    -0.002   0.006  -0.002  -0.003  -0.023  -0.021  -0.051  -7.5997149891   0.4461679560   3.9984432721 2        0.004        0.006        0.004        0.003        0.004        0.006   0.0210571792     0.002     0.002     0.001   0.0036641553   0.0039003384   0.0000000000
1739447650.800 2353.00000 388468.800  22.2930578696 114.1742056347        3.193 -2417865.417  5386478.871  2404470.892    -0.008    -0.001    -0.011     0.008    -0.011    -0.002   0.008  -0.011  -0.003   0.036  -0.100   0.047  -7.5251275457   0.4531494430   3.9055326567 2        0.004        0.006        0.004        0.003        0.004        0.006   0.0210655015     0.002     0.002     0.001   0.0036904044   0.0039239964   0.0000000000
1739447650.900 2353.00000 388468.900  22.2930578631 114.1742056389        3.193 -2417865.418  5386478.871  2404470.891    -0.007     0.001    -0.010     0.006    -0.011     0.000   0.007  -0.010  -0.001  -0.061   0.044  -0.007  -7.3512918153   0.4802160194   3.6660128885 2        0.004        0.006        0.004        0.003        0.004        0.006   0.0210718196     0.002     0.002     0.001   0.0037108054   0.0039423187   0.0000000000
1739447651.000 2353.00000 388469.000  22.2930578566 114.1742056423        3.193 -2417865.418  5386478.871  2404470.891    -0.005    -0.000    -0.010     0.005    -0.010    -0.002   0.005  -0.010  -0.003  -0.018   0.084  -0.007  -7.2544249090   0.4656485297   3.4658560802 2        0.004        0.006        0.004        0.003        0.004        0.006   0.0210750140     0.002     0.002     0.001   0.0037222600   0.0039523710   0.0000000000
1739447651.100 2353.00000 388469.100  22.2930578564 114.1742056414        3.195 -2417865.419  5386478.873  2404470.891     0.003     0.002    -0.006    -0.003    -0.006    -0.002  -0.003  -0.006  -0.001  -0.004  -0.043   0.089  -7.2185090839   0.4531723388   3.4399155039 2        0.004        0.006        0.004        0.003        0.004        0.006   0.0210745968     0.002     0.002     0.001   0.0037233690   0.0039527961   0.0000000000
1739447651.200 2353.00000 388469.200  22.2930578573 114.1742056394        3.195 -2417865.418  5386478.873  2404470.891    -0.002     0.003    -0.006     0.000    -0.007     0.001   0.001  -0.007   0.001  -0.015   0.046  -0.011  -7.2312172944   0.4230977655   3.4477878613 2        0.004        0.006        0.004        0.003        0.004        0.006   0.0210708398     0.002     0.002     0.001   0.0037151431   0.0039444366   0.0000000000
